[
    {
        "id": 1,
        "name": "MAY-IN-1",
        "location": "H1 - Tang 1",
        "state": "Activing",
        "remainingPage": 1000
    },
    {
        "id": 2,
        "name": "MAY-IN-2",
        "location": "H1 - Tang 2",
        "state": "Activing",
        "remainingPage": 900
    },
    {
        "id": 3,
        "name": "MAY-IN-3",
        "location": "H6 - Tang 1",
        "state": "Disabling",
        "remainingPage": 500
    },
    {
        "id": 4,
        "name": "MAY-IN-4",
        "location": "H3 - Tang 1",
        "state": "Running out of papers",
        "remainingPage": 0
    },
    {
        "id": 5,
        "name": "MAY-IN-5",
        "location": "H2 - Tang 1",
        "state": "Activing",
        "remainingPage": 1000
    },
    {
        "id": 6,
        "name": "MAY-IN-6",
        "location": "H6 - Tang 2",
        "state": "Activing",
        "remainingPage": 1000
    },
    {
        "id": 7,
        "name": "MAY-IN-1",
        "location": "H1 - Tang 1",
        "state": "Activing",
        "remainingPage": 1000
    },
    {
        "id": 8,
        "name": "MAY-IN-2",
        "location": "H1 - Tang 2",
        "state": "Activing",
        "remainingPage": 900
    },
    {
        "id": 9,
        "name": "MAY-IN-3",
        "location": "H6 - Tang 1",
        "state": "Disabling",
        "remainingPage": 500
    },
    {
        "id": 10,
        "name": "MAY-IN-4",
        "location": "H3 - Tang 1",
        "state": "Running out of papers",
        "remainingPage": 0
    },
    {
        "id": 11,
        "name": "MAY-IN-5",
        "location": "H2 - Tang 1",
        "state": "Activing",
        "remainingPage": 1000
    },
    {
        "id": 12,
        "name": "MAY-IN-6",
        "location": "H6 - Tang 2",
        "state": "Activing",
        "remainingPage": 1000
    }
]